City_ID,City,Lat,Lng,Max Temp,Humidity,Cloudiness,Wind Speed,Country,Date
0,wainwright,52.839,-110.8572,-4.1,92,12,3.46,CA,1730646572
1,bredasdorp,-34.5322,20.0403,19.43,54,100,11.76,ZA,1730646573
2,inhambane,-23.865,35.3833,26.99,74,0,6.69,MZ,1730646574
3,port-aux-francais,-49.35,70.2167,5.34,83,20,9.68,TF,1730646575
4,enewetak,11.3474,162.3373,28.14,78,18,1.83,MH,1730646577
5,edinburgh of the seven seas,-37.0676,-12.3116,11.54,64,96,7.05,SH,1730646578
6,stanley,54.868,-1.6985,10.29,89,75,0.51,GB,1730646579
7,blackmans bay,-43.0167,147.3167,12.07,65,100,1.34,AU,1730646580
8,bethel,41.3712,-73.414,7.63,57,0,4.12,US,1730646581
9,korla,41.7597,86.1469,11.04,46,1,1.26,CN,1730646582
10,puerto natales,-51.7236,-72.4875,12.25,58,20,3.6,CL,1730646584
11,cabo san lucas,22.8909,-109.9124,22.64,59,40,9.39,MX,1730646211
12,troy,42.6056,-83.1499,11.48,75,0,5.66,US,1730646455
13,sao raimundo das mangabeiras,-7.0219,-45.4811,38.75,22,10,4.99,BR,1730646589
14,constantia,44.1833,28.65,8.38,33,7,2.62,RO,1730646590
15,adamstown,-25.066,-130.1015,20.29,75,43,4.49,PN,1730646592
16,vernon,50.2581,-119.2691,2.74,92,61,0.89,CA,1730646593
17,kazan,55.7887,49.1221,-1.66,68,81,5.72,RU,1730646351
18,east ballina,-28.8667,153.5833,20.23,90,58,5.7,AU,1730646596
19,iqaluit,63.7506,-68.5145,-6.28,85,94,2.68,CA,1730646598
20,selkirk,50.1436,-96.8845,5.66,94,100,4.02,CA,1730646599
21,longyearbyen,78.2186,15.6401,-1.09,80,75,6.17,SJ,1730646600
22,atafu village,-8.5421,-172.5159,28.09,69,97,3.08,TK,1730646601
23,san patricio,28.017,-97.5169,27.97,67,1,8.52,US,1730646602
24,kavieng,-2.5744,150.7967,27.69,77,35,3.37,PG,1730646603
25,puerto ayora,-0.7393,-90.3518,21.35,67,77,4.75,EC,1730646605
26,charters towers,-20.1,146.2667,20.06,86,0,3.44,AU,1730646606
27,ust-tsilma,65.441,52.1498,-2.19,86,99,4.71,RU,1730646607
28,aldinga beach,-35.2793,138.4604,15.91,74,100,3.32,AU,1730646608
29,tvoroyri,61.5556,-6.8111,10.35,94,100,8.38,FO,1730646609
30,bilibino,68.0546,166.4372,-24.21,96,93,3.26,RU,1730646610
31,sona,45.4388,10.8255,18.81,57,52,1.54,IT,1730646612
32,henryetta,35.4398,-95.9819,16.97,93,100,7.96,US,1730646613
33,carnarvon,-24.8667,113.6333,20.96,75,47,8.0,AU,1730646614
34,papatowai,-46.5619,169.4708,7.8,75,100,2.23,NZ,1730646615
35,port alfred,-33.5906,26.891,21.21,81,93,0.89,ZA,1730646616
36,floro,61.5996,5.0328,8.98,93,40,2.06,NO,1730646617
37,langepas,61.2544,75.2124,2.47,72,98,9.16,RU,1730646619
38,talnakh,69.4865,88.3972,-12.14,86,95,4.14,RU,1730646620
39,moussoro,13.6408,16.4901,33.31,15,90,5.57,TD,1730646621
40,mount pleasant,32.7941,-79.8626,19.99,81,40,5.14,US,1730646622
41,qaqortoq,60.7167,-46.0333,0.08,78,100,1.11,GL,1730646623
42,hasaki,35.7333,140.8333,18.24,59,0,4.88,JP,1730646626
43,wailua homesteads,22.0669,-159.378,24.44,90,20,6.69,US,1730646627
44,grytviken,-54.2811,-36.5092,-0.09,78,89,10.82,GS,1730646628
45,saipan,15.1355,145.701,27.39,89,40,6.69,MP,1730646629
46,laascaanood,8.4774,47.3597,28.97,37,15,2.46,SO,1730646630
47,camminghaburen,53.2097,5.8432,10.56,73,65,1.79,NL,1730646631
48,capo d'orlando,38.1435,14.7305,20.09,73,5,2.12,IT,1730646633
49,tazovsky,67.4667,78.7,-4.65,94,100,11.99,RU,1730646634
50,tsiombe,-25.3,45.4833,24.63,80,2,8.17,MG,1730646635
51,fale old settlement,-9.3852,-171.2468,27.93,74,28,3.45,TK,1730646636
52,hadibu,12.65,54.0333,27.02,79,37,2.6,YE,1730646637
53,conduaga,8.862,117.4893,25.65,88,97,1.31,PH,1730646638
54,port douglas,-16.4833,145.4667,24.43,80,66,5.71,AU,1730646639
55,ar raqqah,35.95,39.0167,19.65,63,42,2.46,SY,1730646641
56,pacific grove,36.6177,-121.9166,12.83,92,20,7.6,US,1730646642
57,lebu,-37.6167,-73.65,13.67,71,100,7.24,CL,1730646643
58,mata-utu,-13.2816,-176.1745,27.56,82,96,4.9,WF,1730646644
59,emerald,-23.5333,148.1667,21.3,66,1,5.11,AU,1730646645
60,saint-pierre,-21.3393,55.4781,24.82,73,0,1.54,RE,1730646646
61,asau,46.4333,26.4,4.25,53,64,0.98,RO,1730646647
62,al artawiyah,26.5053,45.3444,27.87,26,4,2.76,SA,1730646649
63,waitangi,-43.9535,-176.5597,6.57,81,39,1.79,NZ,1730646650
64,ushuaia,-54.8,-68.3,10.83,73,99,2.1,AR,1730646651
65,hirara,24.8,125.2833,26.57,71,99,7.03,JP,1730646652
66,arraial do cabo,-22.9661,-42.0278,26.92,74,40,10.8,BR,1730646653
67,port shepstone,-30.7414,30.455,21.95,88,100,10.07,ZA,1730646654
68,nizhnesortymskiy,62.4397,71.7603,-0.9,80,97,10.9,RU,1730646655
69,isafjordur,66.0755,-23.124,7.02,81,100,5.66,IS,1730646657
70,nouadhibou,20.931,-17.0347,22.99,68,74,8.23,MR,1730646658
71,mendi,-6.1761,143.6513,14.06,100,100,0.44,PG,1730646659
72,ribeira grande,38.5167,-28.7,22.1,73,40,7.2,PT,1730646660
73,mount gambier,-37.8333,140.7667,12.42,63,99,2.36,AU,1730646661
74,al wafrah,28.6392,47.9306,26.18,49,0,3.93,KW,1730646662
75,margaret river,-33.95,115.0667,12.1,79,2,2.83,AU,1730646663
76,west island,-12.1568,96.8225,26.99,83,100,7.2,CC,1730646665
77,uribia,11.7139,-72.266,26.02,79,100,1.4,CO,1730646666
78,sanming,26.2486,117.6186,21.21,84,100,0.87,CN,1730646667
79,kerikeri,-35.2268,173.9474,5.51,87,0,2.08,NZ,1730646473
80,ballina,-28.8667,153.5667,20.23,90,58,5.7,AU,1730646669
81,nuku'alofa,-21.1333,-175.2,24.19,94,75,3.09,TO,1730646670
82,keflavik,64.0049,-22.5624,10.24,100,100,10.8,IS,1730646672
83,college,64.8569,-147.8028,-6.03,81,100,3.6,US,1730646673
84,warrnambool,-38.3833,142.4833,13.83,58,100,6.54,AU,1730646674
85,ilulissat,69.2167,-51.1,-4.99,68,20,3.6,GL,1730646675
86,kodiak,57.79,-152.4072,3.73,65,0,5.14,US,1730646676
87,at taraf,25.3628,49.725,31.3,56,0,4.58,SA,1730646678
88,tiksi,71.6872,128.8694,-23.13,100,100,1.84,RU,1730646679
89,zaozersk,69.4005,32.4476,-0.71,85,100,9.85,RU,1730646680
90,fort mcmurray,56.7268,-111.381,-2.19,98,100,1.42,CA,1730646489
91,invercargill,-46.4,168.35,10.57,69,100,3.58,NZ,1730646682
92,ta`u,-14.2336,-169.5144,27.14,80,83,6.5,AS,1730646683
93,st. john's,47.5649,-52.7093,5.71,63,49,2.68,CA,1730646684
94,sabha,27.0377,14.4283,26.22,27,0,4.53,LY,1730646686
95,jarocin,51.9727,17.5026,6.49,52,79,3.87,PL,1730646688
96,kiunga,-6.1219,141.2906,23.15,98,99,0.69,PG,1730646689
97,manggar,-2.8833,108.2667,26.82,79,100,1.19,ID,1730646691
98,cabedelo,-6.9811,-34.8339,31.37,61,58,7.72,BR,1730646692
99,enoch,37.7733,-113.0244,1.14,85,100,6.17,US,1730646694
100,arica,-18.475,-70.3042,21.13,60,0,5.14,CL,1730646695
101,albany,42.6001,-73.9662,5.87,61,6,0.89,US,1730646630
102,pangody,65.85,74.4859,-0.03,97,100,11.75,RU,1730646697
103,igarka,67.4667,86.5833,-8.06,81,98,8.44,RU,1730646698
104,lata,40.1629,-8.3327,23.6,51,98,4.42,PT,1730646699
105,vorgashor,67.5833,63.95,-1.46,84,100,6.79,RU,1730646700
106,jamestown,42.097,-79.2353,7.23,64,0,3.09,US,1730646702
107,rio grande,-32.035,-52.0986,23.43,84,100,3.93,BR,1730646703
108,aasiaat,68.7098,-52.8699,-8.29,88,51,2.87,GL,1730646704
109,akureyri,65.6835,-18.0878,6.65,93,100,6.5,IS,1730646575
110,utrik,11.2278,169.8474,27.59,81,100,7.47,MH,1730646706
111,port elizabeth,-33.918,25.5701,21.29,82,50,2.24,ZA,1730646667
112,l'isle-jourdain,43.6144,1.0817,20.21,63,47,4.64,FR,1730646708
113,yellowknife,62.456,-114.3525,-3.1,100,100,3.58,CA,1730646710
114,ancud,-41.8697,-73.8203,10.15,86,100,7.03,CL,1730646711
115,cafayate,-26.073,-65.9761,22.33,64,66,5.55,AR,1730646712
116,ribeira brava,32.65,-17.0667,24.45,77,13,3.97,PT,1730646713
117,callao,-12.0667,-77.15,24.29,77,100,3.09,PE,1730646714
118,walvis bay,-22.9575,14.5053,19.11,62,29,10.28,NA,1730646715
119,geraldton,-28.7667,114.6,18.23,77,100,7.2,AU,1730646607
120,tura,25.5198,90.2201,20.74,93,0,1.31,IN,1730646718
121,alotau,-10.3069,150.4462,23.91,97,99,1.56,PG,1730646719
122,codrington,-38.2667,141.9667,13.65,54,100,6.5,AU,1730646720
123,komotini,41.1228,25.3964,14.47,52,73,1.34,GR,1730646721
124,bargaal,11.2864,51.0773,27.38,74,38,5.26,SO,1730646722
125,udachny,66.4167,112.4,-28.84,100,49,0.93,RU,1730646723
126,at taj,24.2049,23.2857,23.06,26,0,5.1,LY,1730646724
127,nemuro,43.3236,145.575,7.7,72,80,2.93,JP,1730646726
128,kapuskasing,49.4169,-82.4331,3.23,93,100,2.42,CA,1730646727
129,uturoa,-16.7333,-151.4333,25.5,70,27,2.93,PF,1730646728
130,chonchi,-42.6128,-73.8092,10.07,57,85,4.28,CL,1730646729
131,dunedin,-45.8742,170.5036,7.67,72,100,1.34,NZ,1730646730
132,chakulia,22.4833,86.7167,24.05,60,0,1.66,IN,1730646731
133,klyuchi,52.2667,79.1667,10.24,73,100,7.94,RU,1730646732
134,masvingo,-20.0637,30.8277,33.47,12,2,5.23,ZW,1730646734
135,jijiga,9.35,42.8,20.12,44,3,4.83,ET,1730646735
136,ust-nera,64.5667,143.2,-23.87,100,99,2.23,RU,1730646736
137,kill devil hills,36.0307,-75.676,17.77,67,75,6.17,US,1730646737
138,balikpapan,-1.2675,116.8289,25.55,89,20,2.06,ID,1730646738
139,avarua,-21.2078,-159.775,23.03,83,20,3.09,CK,1730646739
140,yakeshi,49.2833,120.7333,-5.36,54,4,1.87,CN,1730646741
141,bohain-en-vermandois,49.9873,3.453,13.65,74,13,2.82,FR,1730646742
142,fort bragg,35.139,-79.006,17.04,66,0,3.6,US,1730646743
143,labuan,5.2767,115.2417,28.12,74,14,2.41,MY,1730646744
144,hamilton,39.1834,-84.5333,14.34,60,0,4.63,US,1730646745
145,tambo grande,-4.9269,-80.3447,24.54,53,100,1.48,PE,1730646746
146,freetown,8.484,-13.2299,29.71,65,78,4.52,SL,1730646747
147,luderitz,-26.6481,15.1594,20.11,55,11,12.65,NA,1730646749
148,christchurch,-43.5333,172.6333,5.74,87,94,3.6,NZ,1730646476
149,wakimachi,34.0667,134.15,12.31,64,0,2.28,JP,1730646753
150,mohr,54.3528,9.7167,12.05,82,99,6.17,DE,1730646754
151,san andres,12.5847,-81.7006,29.01,84,20,2.06,CO,1730646756
152,port mathurin,-19.6833,63.4167,23.78,81,56,6.62,MU,1730646757
153,afaahiti,-17.75,-149.2833,23.8,72,21,1.61,PF,1730646758
154,tamanrasset,22.785,5.5228,25.95,17,0,3.6,DZ,1730646759
155,east london,-33.0153,27.9116,21.21,75,92,4.31,ZA,1730646760
156,lorengau,-2.0226,147.2712,27.33,77,6,1.49,PG,1730646761
157,dzhetygara,52.1908,61.2006,0.63,59,100,4.85,KZ,1730646762
158,sawakin,19.1059,37.3321,29.94,72,1,5.28,SD,1730646764
159,yichun,47.7,128.9,-0.48,97,99,1.32,CN,1730646765
160,hirtshals,57.5881,9.9592,12.12,90,85,12.82,DK,1730646766
161,crane,31.3974,-102.3501,20.1,37,18,3.71,US,1730646767
162,tourlaville,49.6383,-1.5664,10.68,93,100,4.12,FR,1730646768
163,vidra,44.2606,26.1697,9.08,50,96,0.72,RO,1730646769
164,bandarbeyla,9.4942,50.8122,26.71,79,24,4.67,SO,1730646771
165,arkhangel'sk,64.5401,40.5433,-1.94,86,75,5.0,RU,1730646772
166,alice springs,-23.7,133.8833,32.75,22,99,3.6,AU,1730646773
167,beira,-19.8436,34.8389,28.05,65,0,5.66,MZ,1730646774
168,porto seguro,-16.4497,-39.0647,27.29,78,40,5.66,BR,1730646536
169,penhalonga,-18.8911,32.6978,26.41,27,3,2.82,ZW,1730646776
170,tan-tan,28.438,-11.1032,23.23,45,100,3.76,MA,1730646778
171,punta arenas,-53.15,-70.9167,9.06,71,75,8.75,CL,1730646779
172,aykhal,66.0,111.5,-24.29,100,70,1.69,RU,1730646780
173,tofol,5.3248,163.0078,28.4,76,100,5.33,FM,1730646782
174,boryslav,49.2867,23.4324,3.7,45,41,1.56,UA,1730646783
175,tsengel,49.4783,100.8894,-6.55,58,71,1.52,MN,1730646784
176,port lincoln,-34.7333,135.8667,13.88,73,100,3.35,AU,1730646786
177,happy valley-goose bay,53.3168,-60.3315,1.23,47,81,6.24,CA,1730646787
178,namibe,-15.1961,12.1522,22.66,70,56,5.04,AO,1730646788
179,banamba,13.55,-7.45,35.09,19,45,2.63,ML,1730646789
180,zhuanghe,39.7008,122.9911,12.86,82,55,2.75,CN,1730646790
181,camenca,48.0319,28.6978,5.98,38,64,2.43,MD,1730646791
182,slupsk,54.4641,17.0287,8.55,84,100,8.92,PL,1730646792
183,antofagasta,-23.65,-70.4,18.6,69,56,3.24,CL,1730646794
184,rabka-zdroj,49.6089,19.9665,4.67,58,100,1.5,PL,1730646795
185,tolanaro,-25.0319,46.9987,24.6,81,26,6.94,MG,1730646796
186,undurkhaan,47.3194,110.6556,-4.78,54,2,3.2,MN,1730646797
187,rongelap,11.1635,166.8941,28.4,75,100,4.02,MH,1730646798
188,olonkinbyen,70.9221,-8.7187,-1.01,68,99,5.05,SJ,1730646799
189,mazamari,-11.3258,-74.5308,27.15,61,100,1.08,PE,1730646800
190,colonia,50.9333,6.95,14.51,75,0,3.09,DE,1730646802
191,muisne,0.6,-80.0333,24.03,78,100,4.46,EC,1730646803
192,kem',64.9555,34.5793,-2.84,69,14,3.37,RU,1730646804
193,camana,-16.6228,-72.7111,21.27,66,0,4.43,PE,1730646805
194,aksu,41.1231,80.2644,11.74,37,0,1.44,CN,1730646806
195,severo-vostotchnyi bank,39.4112,49.2479,14.18,76,70,17.7,AZ,1730646807
196,egilsstadir,65.2653,-14.3948,6.95,81,75,6.17,IS,1730646808
197,anka,12.1138,5.9243,33.47,12,46,4.92,NG,1730646810
198,okhotsk,59.3833,143.3,-7.92,72,100,5.09,RU,1730646811
199,mont-dore,-22.2833,166.5833,20.57,81,100,0.45,NC,1730646812
200,senekal,-28.3197,27.6208,24.66,37,73,13.63,ZA,1730646813
201,mili,6.0815,171.735,25.99,84,100,3.72,MH,1730646814
202,barra de santo antonio,-9.4047,-35.5072,27.53,57,14,4.87,BR,1730646816
203,georgetown,5.4112,100.3354,28.96,78,20,1.54,MY,1730646818
204,westport,41.1415,-73.3579,8.78,55,0,5.14,US,1730646819
205,fort st. john,56.2499,-120.8529,-4.5,88,63,1.59,CA,1730646820
206,red deer,52.2668,-113.802,-3.73,100,100,2.57,CA,1730646821
207,axim,4.8699,-2.2405,28.72,68,22,3.32,GH,1730646822
208,kutum,14.2,24.6667,28.87,18,26,2.09,SD,1730646823
209,mangai,-4.05,19.5333,27.25,66,79,0.75,CD,1730646825
210,salalah,17.0151,54.0924,29.05,74,75,1.03,OM,1730646826
211,powell,40.1578,-83.0752,13.39,58,0,4.63,US,1730646827
212,petropavlovsk-kamchatsky,53.0452,158.6483,-4.53,71,47,4.51,RU,1730646768
213,paracuru,-3.41,-39.0306,30.16,55,100,8.04,BR,1730646829
214,nadi,-17.8,177.4167,24.0,78,40,3.6,FJ,1730646831
215,agropoli,40.3469,14.9966,19.72,59,8,1.28,IT,1730646833
216,sao felix do xingu,-6.6447,-51.995,37.63,32,50,1.43,BR,1730646834
217,mirny,62.5353,113.9611,-24.41,100,99,1.2,RU,1730646835
218,vilyuchinsk,52.9306,158.4028,-4.93,76,43,3.73,RU,1730646836
219,khandyga,62.6667,135.6,-19.24,94,100,0.7,RU,1730646837
220,wad az zaki,14.4619,32.2065,33.38,13,2,6.17,SD,1730646838
221,malabar,-33.9667,151.25,22.58,74,100,3.09,AU,1730646840
222,badger,64.8,-147.5333,-6.07,86,0,3.6,US,1730646841
223,anadyr,64.75,177.4833,-9.72,72,0,8.0,RU,1730646842
224,ust'-ilimsk,58.0006,102.6619,-10.53,96,21,1.63,RU,1730646843
225,boguchany,58.3814,97.4531,-7.15,75,55,1.77,RU,1730646844
226,mount pearl,47.5166,-52.7813,5.25,59,75,6.69,CA,1730646845
227,paramonga,-10.6667,-77.8333,20.28,77,70,4.62,PE,1730646846
228,pionerskiy,54.9508,20.2275,8.91,88,100,15.61,RU,1730646848
229,najran,17.4924,44.1277,23.27,19,0,4.96,SA,1730646849
230,daday,41.4787,33.4667,3.49,84,100,2.12,TR,1730646850
231,buka,40.8108,69.1986,17.27,38,6,1.33,UZ,1730646851
232,mbanza kongo,-6.267,14.2401,26.92,67,100,1.47,AO,1730646852
233,sandpoint,48.2766,-116.5533,4.29,96,100,2.06,US,1730646780
234,indramayu,-6.3264,108.32,25.88,84,100,3.41,ID,1730646855
235,smidovich,48.6,133.8167,-0.14,65,100,1.6,RU,1730646856
236,kuching,1.55,110.3333,26.12,98,20,1.03,MY,1730646857
237,dodge city,37.7528,-100.0171,14.57,90,20,7.72,US,1730646858
238,weno,7.4515,151.8468,27.97,83,100,2.57,FM,1730646859
239,fortaleza,-3.7227,-38.5247,31.07,58,40,8.75,BR,1730646860
240,areia branca,-4.9561,-37.1369,30.09,55,87,9.38,BR,1730646861
241,mogocha,53.7333,119.7667,-10.69,84,20,1.26,RU,1730646863
242,lihue,21.9789,-159.3672,24.77,84,20,6.69,US,1730646851
243,palikir - national government center,6.9248,158.1611,28.0,70,56,1.07,FM,1730646865
244,mount darwin,-16.7725,31.5838,32.69,18,11,3.53,ZW,1730646866
245,thompson,55.7435,-97.8558,-2.91,93,100,1.54,CA,1730646867
246,portland,45.5234,-122.6762,10.18,94,71,2.24,US,1730646303
247,lospalos,-8.5186,127.0025,23.11,90,96,2.0,TL,1730646869
248,lindesberg,59.592,15.2304,11.18,76,95,7.29,SE,1730646871
249,jefferson city,38.5767,-92.1735,19.38,80,100,7.2,US,1730646872
250,elliot lake,46.3834,-82.6331,4.84,71,100,2.85,CA,1730646873
251,khorixas,-20.3667,14.9667,35.14,10,86,9.56,NA,1730646874
252,karagandy,49.8019,73.1021,9.97,62,11,8.26,KZ,1730646875
253,indre arna,60.4247,5.4764,10.12,94,100,1.56,NO,1730646876
254,nagqu,31.5,92.0,-0.12,27,100,2.09,CN,1730646879
255,queenstown,-31.8976,26.8753,24.79,45,97,1.54,ZA,1730646880
256,antsiranana,-12.2787,49.2917,27.42,69,20,5.14,MG,1730646881
257,la ronge,55.1001,-105.2842,2.14,93,100,2.06,CA,1730646882
258,francisco sa,-16.4758,-43.4883,29.19,50,94,3.44,BR,1730646883
259,vila velha,-20.3297,-40.2925,27.97,82,75,4.63,BR,1730646884
260,gadzhiyevo,69.2551,33.3362,-0.93,85,100,9.75,RU,1730646886
261,brookings,44.3114,-96.7984,8.99,95,100,5.14,US,1730646887
262,sullivan,36.5168,-82.5332,18.93,71,75,2.06,US,1730646888
263,luwuk,-0.9516,122.7875,23.47,88,58,1.22,ID,1730646889
264,polyarnyy,69.1989,33.4478,-0.98,83,100,9.4,RU,1730646890
265,paka,4.6374,103.4368,23.88,100,11,0.4,MY,1730646893
266,el calafate,-50.3408,-72.2768,8.49,64,80,3.06,AR,1730646894
267,sandnessjoen,66.0217,12.6316,4.06,87,75,7.2,NO,1730646895
268,canutama,-6.5339,-64.3831,39.15,30,100,1.13,BR,1730646896
269,thunder bay,48.4001,-89.3168,0.99,100,100,1.03,CA,1730646897
270,balykshi,47.0667,51.8667,3.0,93,75,4.0,KZ,1730646898
271,santa eulalia,-11.85,-76.6833,18.61,51,87,4.41,PE,1730646900
272,okha,53.5739,142.9478,-2.63,76,100,5.64,RU,1730646901
273,namtsy,62.7161,129.6658,-24.7,99,100,0.87,RU,1730646902
274,mulayjah,27.271,48.4242,26.89,51,0,4.63,SA,1730646903
275,aldan,58.6031,125.3894,-12.04,97,100,0.64,RU,1730646904
276,mkushi,-13.6202,29.3939,28.65,36,74,3.94,ZM,1730646905
277,graaff-reinet,-32.2522,24.5308,31.07,30,40,4.79,ZA,1730646906
278,nema,57.5067,50.5011,-2.65,74,100,6.32,RU,1730646908
279,malvan,16.0667,73.4667,28.81,76,90,3.19,IN,1730646909
280,changji,44.0167,87.3167,7.44,76,0,2.0,CN,1730646910
281,san antonio de pale,-1.4014,5.6325,25.53,81,48,5.76,GQ,1730646911
282,hawaiian paradise park,19.5933,-154.9731,21.05,100,100,2.57,US,1730646912
283,vila do maio,15.1333,-23.2167,26.5,77,7,6.41,CV,1730646913
284,wenling,28.3669,121.36,16.89,86,2,2.1,CN,1730646914
285,hermanus,-34.4187,19.2345,17.11,73,100,11.13,ZA,1730646916
286,nar'yan-mar,67.6713,53.087,-6.02,91,100,4.14,RU,1730646917
287,archangelos,36.2149,28.1149,21.28,59,4,5.35,GR,1730646918
288,belmonte,-15.8631,-38.8828,26.32,75,95,3.84,BR,1730646919
289,divnoye,45.9089,43.3547,5.8,61,49,6.51,RU,1730646920
290,sur,22.5667,59.5289,28.96,46,0,0.9,OM,1730646921
291,svetlogorsk,52.6333,29.7333,4.35,61,100,5.66,BY,1730646922
292,amahai,-3.3333,128.9167,26.57,82,82,2.21,ID,1730646924
293,barra dos coqueiros,-10.9089,-37.0386,29.01,65,40,6.69,BR,1730646925
294,flin flon,54.7682,-101.865,3.91,93,100,4.63,CA,1730646926
295,vila franca do campo,37.7167,-25.4333,21.23,99,61,10.43,PT,1730646927
296,whitehorse,60.7161,-135.0538,-0.55,86,100,6.71,CA,1730646928
297,rahachow,53.0934,30.0495,3.97,64,100,7.0,BY,1730646929
298,yaren,-0.5472,166.916,28.53,66,44,3.07,NR,1730646930
299,punta cardon,11.6581,-70.215,28.7,69,83,1.82,VE,1730646932
300,terbanggi besar,-4.8667,105.2333,25.59,86,100,3.46,ID,1730646933
301,gueret,46.1667,1.8667,18.63,64,0,1.4,FR,1730646934
302,peace river,56.2501,-117.286,-2.41,99,100,3.09,CA,1730646935
303,rockingham,42.9668,-71.0995,6.51,58,30,1.34,US,1730646936
304,ravels,51.372,4.9904,7.9,68,7,1.99,BE,1730646937
305,haiku-pauwela,20.9219,-156.3051,22.33,82,99,5.36,US,1730646938
306,altai,46.3722,96.2583,-4.91,53,47,1.96,MN,1730646940
307,sabang,5.8933,95.3214,28.16,77,100,4.88,ID,1730646941
308,khash,28.2211,61.2158,23.48,17,0,3.33,IR,1730646942
309,susuman,62.7833,148.1667,-21.12,99,98,1.61,RU,1730646943
310,lucapa,-8.4192,20.7447,24.1,75,100,1.01,AO,1730646944
311,yuzhno-kurilsk,44.0306,145.8556,5.95,83,80,2.44,RU,1730646945
312,usogorsk,63.4106,48.6872,-0.44,86,100,5.93,RU,1730646946
313,biala podlaska,52.0324,23.1165,6.69,33,64,7.06,PL,1730646948
314,huancavelica,-12.7667,-74.9833,7.3,60,100,1.96,PE,1730646949
315,la passe,45.5549,-0.8967,19.38,65,5,2.34,FR,1730646950
316,kalajoki,64.25,23.95,3.28,81,97,4.46,FI,1730646951
317,santa elena de uairen,4.6167,-61.1333,28.76,42,100,3.48,VE,1730646954
318,trinity beach,-16.7888,145.6968,23.94,78,37,4.12,AU,1730646955
319,medina,24.4686,39.6142,31.24,35,20,6.17,SA,1730646956
320,gorno-altaysk,51.9561,85.955,6.12,74,96,2.45,RU,1730646957
321,myitkyina,25.3833,97.4,22.5,82,0,0.74,MM,1730646958
322,nova sintra,14.8667,-24.7167,25.75,82,32,10.0,CV,1730646959
323,lianzhou,24.7811,112.3825,20.63,73,99,1.48,CN,1730646960
324,khorramabad,33.4878,48.3558,15.79,77,100,2.06,IR,1730646962
325,newman,37.3138,-121.0208,7.81,84,0,0.45,US,1730646963
326,antsohihy,-14.8796,47.9875,28.4,67,0,4.48,MG,1730646964
327,bamiantong,44.9333,130.5333,1.84,100,100,1.38,CN,1730646965
328,mossel bay,-34.1831,22.146,18.96,71,73,6.37,ZA,1730646966
329,glendive,47.1053,-104.7125,6.79,56,20,7.2,US,1730646967
330,i-n-salah,27.1935,2.4607,34.33,11,80,3.33,DZ,1730646968
331,vung tau,10.346,107.0843,26.85,83,11,5.73,VN,1730646970
332,jincheng,35.5022,112.8328,12.78,32,46,3.4,CN,1730646971
333,montepuez,-13.1256,38.9997,32.28,36,92,3.52,MZ,1730646972
334,bayganin,48.6947,55.8742,3.6,48,100,3.39,KZ,1730646973
335,puri,19.8,85.85,26.63,65,6,1.73,IN,1730646974
336,marang,5.2056,103.2059,25.95,82,12,0.85,MY,1730646975
337,altay,47.8667,88.1167,-0.36,69,63,3.46,CN,1730646977
338,bel ombre,-4.6167,55.4167,26.91,74,20,1.03,SC,1730646978
339,kuala tungkal,-0.8167,103.4667,25.44,88,100,0.85,ID,1730646979
340,yung shue wan,22.2333,114.1167,25.93,82,97,0.89,HK,1730646981
341,maxixe,-23.8597,35.3472,26.9,74,0,6.69,MZ,1730646983
342,swift current,50.2834,-107.8014,-1.55,93,0,6.17,CA,1730646984
343,baise city,23.8997,106.6133,20.04,73,0,0.95,CN,1730646985
344,kapa'a,22.0752,-159.319,25.18,89,20,6.69,US,1730646986
345,fortuna,40.5982,-124.1573,10.52,96,20,3.09,US,1730646987
346,praia da vitoria,38.7333,-27.0667,22.14,78,20,8.0,PT,1730646988
347,pathein,16.7833,94.7333,25.66,79,39,1.79,MM,1730646990
348,flying fish cove,-10.4217,105.6791,26.82,94,100,3.6,CX,1730646991
349,taltal,-25.4,-70.4833,17.22,72,42,2.9,CL,1730646992
350,turka,49.1541,23.0297,2.47,40,21,1.74,UA,1730646993
351,dudinka,69.4058,86.1778,-8.2,87,85,5.8,RU,1730646994
352,luganville,-15.5333,167.1667,25.11,87,100,3.43,VU,1730646995
353,ishinomaki,38.4167,141.3,9.63,74,0,1.72,JP,1730646997
354,ushibukamachi,32.1906,130.0228,19.85,68,1,3.44,JP,1730646998
355,malindi,-3.2175,40.1191,27.03,75,23,5.41,KE,1730646999
356,leninskoye,41.7589,69.3864,15.68,33,37,0.99,KZ,1730647000
357,ulladulla,-35.35,150.4667,15.21,82,99,3.45,AU,1730647001
358,pontianak,-0.0333,109.3333,23.99,100,75,2.06,ID,1730647002
359,al qubbah,32.7616,22.2424,16.13,67,0,5.88,LY,1730647004
360,bom jesus,-9.0744,-44.3586,37.78,23,27,3.72,BR,1730647005
361,dingwall,57.5953,-4.4272,12.16,83,7,0.68,GB,1730647006
362,castanos,26.7833,-101.4167,24.08,71,20,3.6,MX,1730647007
363,puerto aysen,-45.4,-72.7,7.67,98,99,2.63,CL,1730647008
364,bardai,11.65,7.2333,29.6,15,83,4.97,NG,1730647009
365,salinopolis,-0.6136,-47.3561,28.9,67,73,6.96,BR,1730647010
366,opuwo,-18.0607,13.84,36.53,10,92,5.11,NA,1730647012
367,gantang,26.92,119.6333,18.28,93,66,0.13,CN,1730647013
368,bikenibeu village,1.3673,173.1241,26.98,83,40,0.0,KI,1730647014
369,kuacjok,8.3002,27.9903,31.63,37,97,3.77,SS,1730647015
370,north bend,43.4065,-124.2243,9.03,100,100,3.09,US,1730647016
371,kiffa,16.6166,-11.4045,38.39,7,0,1.53,MR,1730647019
372,ujjain,23.1833,75.7667,25.12,36,0,1.39,IN,1730647020
373,gorontalo,0.5412,123.0595,24.27,92,69,1.0,ID,1730647021
374,manokwari,-0.8667,134.0833,26.37,78,100,2.17,ID,1730647022
375,swakopmund,-22.6833,14.5333,16.66,77,58,4.47,NA,1730647023
376,smithers,54.7804,-127.1743,-0.82,100,75,2.06,CA,1730647026
377,iskateley,67.6803,53.1512,-5.85,91,100,4.18,RU,1730647027
378,caleta de carquin,-11.0925,-77.6267,20.33,77,84,4.76,PE,1730647028
379,olyokminsk,60.3736,120.4264,-18.01,100,68,0.57,RU,1730647029
380,hun,29.1268,15.9477,24.59,27,3,5.56,LY,1730647030
381,chibougamau,49.9168,-74.3659,-2.21,86,100,3.6,CA,1730647032
382,tateyama,34.9833,139.8667,18.05,68,0,4.15,JP,1730647033
383,kosh-agach,50.0,88.6667,-7.28,89,82,1.23,RU,1730647034
384,balaipungut,1.05,101.2833,24.91,91,100,0.99,ID,1730647035
385,jamnagar,22.4667,70.0667,29.69,41,0,2.18,IN,1730647036
386,buala,-8.145,159.5921,26.16,85,74,1.45,SB,1730647038
387,sisimiut,66.9395,-53.6735,-6.27,74,2,4.77,GL,1730647039
388,margate,51.3813,1.3862,11.6,81,22,0.45,GB,1730647040
389,coxim,-18.5067,-54.76,31.83,50,100,1.37,BR,1730647041
390,constitucion,-35.3333,-72.4167,14.47,57,100,3.35,CL,1730647042
391,novovarshavka,54.1721,74.6946,11.39,65,100,9.5,RU,1730647044
392,ketchikan,55.3422,-131.6461,7.65,87,0,2.06,US,1730647046
393,mashhad,36.297,59.6062,20.08,49,0,3.09,IR,1730647047
394,laghouat,33.8,2.8651,21.78,41,57,5.33,DZ,1730647048
395,kurumkan,54.3,110.3,-8.27,86,93,1.85,RU,1730647049
396,camapua,-19.5314,-54.0439,24.19,79,100,2.95,BR,1730647050
397,kuala belait,4.5833,114.1833,26.67,76,49,0.72,BN,1730647051
398,kathu,7.9178,98.3332,29.83,83,100,3.83,TH,1730647053
399,sretensk,52.2453,117.7093,-8.75,81,54,1.12,RU,1730647054
400,setakamachi-takayanagi,33.15,130.4667,17.21,66,0,0.85,JP,1730647056
401,duba,27.3513,35.6901,25.4,45,0,4.58,SA,1730647057
402,nyala,12.05,24.8833,32.24,18,2,4.57,SD,1730647059
403,kolonia,50.9333,6.95,14.98,68,0,3.09,DE,1730647062
404,rock forest,45.3702,-71.99,1.69,63,4,2.57,CA,1730647063
405,cidreira,-30.1811,-50.2056,22.63,84,100,2.91,BR,1730647064
406,kailua-kona,19.6406,-155.9956,22.53,98,100,1.85,US,1730647065
407,ilha solteira,-20.4328,-51.3425,24.38,82,100,0.87,BR,1730647067
408,lerwick,60.1545,-1.1494,11.57,93,100,5.61,GB,1730647068
409,kuanda,56.3161,116.0806,-11.3,91,97,0.38,RU,1730647069
410,garoowe,8.4054,48.4845,31.04,33,11,0.83,SO,1730647070
411,port saint john's,-31.6229,29.5448,21.19,90,100,5.07,ZA,1730647071
412,coronel suarez,-37.4547,-61.9334,22.42,23,100,7.09,AR,1730647072
413,ulsteinvik,62.3432,5.8487,9.06,94,100,0.45,NO,1730647074
414,acapulco de juarez,16.8634,-99.8901,27.9,69,20,1.54,MX,1730647066
415,garla-mare,44.2092,22.775,10.06,35,100,1.85,RO,1730647076
416,north myrtle beach,33.816,-78.68,19.51,71,100,6.17,US,1730647077
417,merowe,18.4833,31.8167,29.62,15,0,5.0,SD,1730647078
418,miles city,46.4083,-105.8406,3.54,65,0,4.12,US,1730646987
419,shache,38.4167,77.2406,13.06,31,50,1.62,CN,1730647080
420,saurimo,-9.6608,20.3916,25.14,63,100,1.37,AO,1730647082
421,yongchuan,29.3514,105.8947,18.03,77,100,0.33,CN,1730647083
422,narasapur,16.45,81.6667,24.55,79,8,2.47,IN,1730647084
423,porto novo,6.4965,2.6036,30.9,65,92,2.68,BJ,1730647085
424,znamensk,48.5842,45.7338,3.33,44,19,3.21,RU,1730647086
425,lompoc,34.6391,-120.4579,11.4,77,0,7.2,US,1730647087
426,elmali,36.7358,29.9177,13.16,35,7,2.24,TR,1730647089
427,gornopravdinsk,60.05,69.9,-1.25,73,100,7.98,RU,1730647090
428,berbera,10.4396,45.0143,28.87,48,0,3.39,SO,1730647091
429,zhanaozen,43.3,52.8,9.92,75,60,9.78,KZ,1730647092
430,lamar,33.6668,-95.5836,22.95,92,100,4.12,US,1730647093
431,ludza,56.55,27.7167,2.9,95,100,6.61,LV,1730647094
432,metlili chaamba,32.2667,3.6333,19.52,73,75,4.12,DZ,1730647095
433,guardo,42.7897,-4.8482,14.7,58,41,2.31,ES,1730647097
434,progreso,21.2833,-89.6667,27.59,68,9,4.69,MX,1730647098
435,faya-largeau,17.9257,19.1043,29.71,16,47,7.89,TD,1730647099
436,labytnangi,66.6572,66.4183,-1.05,96,100,10.18,RU,1730647100
437,prince rupert,54.3161,-130.3201,8.83,82,100,6.17,CA,1730647101
438,okeho,8.0333,3.35,28.93,59,94,0.4,NG,1730647102
439,nioki,-2.7167,17.6833,27.62,70,97,1.63,CD,1730647103
440,zapolyarnyy,69.4154,30.8136,-2.33,95,99,8.5,RU,1730647105
441,chernyshevskiy,63.0128,112.4714,-25.82,100,88,1.28,RU,1730647106
442,palmas,-10.2128,-48.3603,31.93,55,40,3.6,BR,1730646914
443,gaiman,-43.2897,-65.4929,19.11,19,100,16.9,AR,1730647108
444,huarmey,-10.0681,-78.1522,20.8,76,57,4.79,PE,1730647109
445,greymouth,-42.4667,171.2,3.65,89,100,2.07,NZ,1730647110
446,balsas,-7.5325,-46.0356,37.29,24,54,3.65,BR,1730647112
447,guatrache,-37.6678,-63.5302,20.23,27,100,8.89,AR,1730647113
448,mitu,1.1983,-70.1733,28.69,80,85,0.72,CO,1730647114
449,dryden,49.7833,-92.7503,4.16,93,100,4.63,CA,1730647115
450,usinsk,65.9939,57.5281,-2.78,95,100,9.91,RU,1730646852
451,itambe,-15.245,-40.6244,30.21,44,100,3.79,BR,1730647118
452,tamandare,-8.7597,-35.1047,28.04,61,26,5.27,BR,1730647119
453,hithadhoo,-0.6,73.0833,28.02,69,27,5.53,MV,1730647120
454,tazacorte,28.629,-17.9293,24.54,97,20,3.09,ES,1730647121
455,fada,7.25,4.0667,31.71,55,49,1.14,NG,1730647122
456,palompon,11.0508,124.3843,26.39,83,100,2.92,PH,1730647123
457,howrah,22.5892,88.3103,27.0,83,20,1.54,IN,1730647124
458,bethanie,-26.4833,17.15,34.58,5,5,8.07,NA,1730647126
459,kruisfontein,-34.0033,24.7314,18.49,68,76,6.27,ZA,1730647127
460,itoman,26.1247,127.6694,25.01,78,0,3.6,JP,1730647128
461,papao,-17.75,-149.55,22.82,70,26,0.42,PF,1730647129
462,yenangyaung,20.4667,94.8833,25.96,77,1,0.88,MM,1730647130
463,bonga,7.2833,36.2333,17.61,96,69,0.76,ET,1730647131
464,duong dong,10.2167,103.9667,26.0,94,75,0.51,VN,1730647132
465,tralee,52.2704,-9.7026,14.14,82,100,4.63,IE,1730647134
466,markovo,57.3206,107.0881,-8.07,96,100,1.53,RU,1730647135
467,revda,56.801,59.9303,-4.05,68,100,8.76,RU,1730647136
468,ibotirama,-12.1853,-43.2206,36.99,25,57,2.05,BR,1730647138
469,toliara,-23.35,43.6667,26.64,75,0,3.99,MG,1730647140
470,vadso,70.0744,29.7487,1.09,86,40,9.77,NO,1730647141
471,sahagun,8.9462,-75.4427,24.48,94,100,2.58,CO,1730647142
472,sterling,39.0062,-77.4286,11.99,55,75,3.09,US,1730646958
473,antalaha,-14.9003,50.2788,26.11,78,0,6.23,MG,1730647144
474,labrador city,52.9463,-66.9114,-2.68,73,100,7.2,CA,1730647145
475,ivdel',60.6911,60.4206,0.08,77,100,6.28,RU,1730647147
476,basoko,1.2391,23.616,27.04,69,82,0.92,CD,1730647148
477,morshansk,53.4435,41.8107,0.19,74,99,4.72,RU,1730647149
478,sinop,41.7711,34.8709,4.63,93,100,1.97,TR,1730647150
479,zhangye,38.9342,100.4517,7.22,35,0,3.19,CN,1730647151
480,wahpeton,46.2652,-96.6059,8.01,100,100,7.72,US,1730647152
481,canasgordas,6.7499,-76.0254,19.88,80,99,0.8,CO,1730647153
482,hozat,39.1083,39.2213,10.06,45,100,0.79,TR,1730647155
483,arzgir,45.3728,44.2206,5.76,59,70,4.7,RU,1730647156
484,bonthe,7.5264,-12.505,29.96,63,66,3.97,SL,1730647157
485,raja,8.4596,25.678,32.27,31,47,1.2,SS,1730647158
486,ndjole,-0.1783,10.7649,29.05,76,82,1.78,GA,1730647159
487,castillos,-34.1667,-53.8333,20.42,73,100,5.4,UY,1730647160
488,new norfolk,-42.7826,147.0587,12.73,75,100,2.94,AU,1730647162
489,san juan de miraflores,-12.1629,-76.9635,23.98,71,81,4.32,PE,1730647163
490,shingu,33.7333,135.9833,15.83,74,4,2.75,JP,1730647164
491,gunnison,38.7,-107.0673,-2.34,86,98,0.83,US,1730647165
492,salinas,36.6777,-121.6555,13.06,87,0,2.57,US,1730647044
493,gazojak,41.1875,61.4036,19.27,33,86,3.59,TM,1730647167
494,chazuta,-6.5742,-76.1367,30.47,48,100,0.41,PE,1730647169
495,bengkulu,-3.8004,102.2655,24.98,89,100,1.23,ID,1730647170
496,tarawa,1.419,172.984,27.05,83,40,0.0,KI,1730647171
497,kharp,66.8014,65.8081,-1.32,96,100,8.72,RU,1730647172
498,san pedro pochutla,15.7333,-96.4667,29.84,71,41,0.16,MX,1730647108
499,bankim,6.083,11.4905,29.01,57,93,0.48,CM,1730647174
500,kokopo,-4.352,152.2633,25.37,88,34,2.81,PG,1730647175
501,san luis de la loma,17.2706,-100.8939,27.56,78,4,0.36,MX,1730647177
502,ouargla,31.9493,5.325,28.04,32,75,7.72,DZ,1730647178
503,saldanha,-33.0117,17.9442,20.03,76,100,6.38,ZA,1730647179
504,arno,60.1167,18.6333,7.06,81,100,9.19,SE,1730647180
505,corner brook,48.9667,-57.9484,2.86,55,93,5.59,CA,1730647181
506,bubaque,11.2833,-15.8333,28.24,72,100,2.8,GW,1730647182
507,boquira,-12.8231,-42.7306,34.75,29,53,1.61,BR,1730647184
508,conde,-7.2597,-34.9075,30.7,42,40,8.23,BR,1730647185
509,la'ie,21.6477,-157.9253,23.95,87,66,3.13,US,1730647186
510,robertsport,6.7533,-11.3686,28.22,72,55,3.95,LR,1730647187
511,geiro,-6.15,36.8667,24.2,50,59,3.86,TZ,1730647188
512,mwinilunga,-11.7358,24.4293,19.94,83,92,2.43,ZM,1730647189
513,takeo,10.9167,104.8333,26.18,81,100,2.75,KH,1730647190
514,port macquarie,-31.4333,152.9167,20.04,96,100,1.79,AU,1730646932
515,bad wildungen,51.1196,9.1248,10.05,93,86,1.03,DE,1730647194
516,curvelo,-18.7564,-44.4308,25.58,63,100,1.67,BR,1730647196
517,misratah,32.3754,15.0925,22.73,54,13,4.7,LY,1730647198
518,touros,-5.1989,-35.4608,29.28,53,55,7.56,BR,1730647199
519,santa ana de yacuma,-13.75,-65.4333,27.97,83,75,4.12,BO,1730647200
520,temiskaming shores,47.4938,-79.7153,1.89,66,100,2.14,CA,1730647201
521,tabou,4.423,-7.3528,28.12,70,22,3.1,CI,1730647202
522,eyl,7.9803,49.8164,26.95,69,68,5.44,SO,1730647203
523,booue,-0.0921,11.9385,29.84,67,94,0.4,GA,1730647204
524,tsarevo,42.1667,27.85,10.28,58,35,4.65,BG,1730647206
525,gewane,10.1664,40.6453,31.64,23,10,2.64,ET,1730647207
526,igrim,63.1906,64.4162,-0.21,99,100,2.74,RU,1730647208
527,kolosovka,56.4678,73.611,4.54,64,100,7.33,RU,1730647212
528,tromso,69.6496,18.957,1.01,80,75,5.66,NO,1730647213
529,dalandzadgad,43.5708,104.425,1.11,37,70,3.7,MN,1730647214
530,mahibadhoo,3.7833,72.9667,28.09,74,100,4.34,MV,1730647215
531,mafinga,-7.25,35.0667,32.82,19,27,3.5,TZ,1730647216
532,uray,60.1247,64.7758,-2.19,78,100,10.18,RU,1730647217
533,brisas de zicatela,15.8369,-97.0419,27.29,78,0,3.09,MX,1730647218
534,sola,-13.8833,167.55,26.61,81,97,9.72,VU,1730647220
535,zabol,32.25,67.25,16.18,29,0,5.02,AF,1730647221
536,sitka,57.0531,-135.33,6.66,88,100,5.55,US,1730647222
537,dzuunmod,48.2199,97.3744,-5.76,76,97,2.36,MN,1730647223
538,filingue,14.3521,3.3168,34.43,11,23,6.08,NE,1730647224
539,valdivia,-39.8142,-73.2459,11.05,98,100,2.14,CL,1730647225
540,tot'ma,59.9747,42.7642,-2.63,80,17,3.65,RU,1730647227
541,terbuny,52.1389,38.2789,-0.07,71,74,5.98,RU,1730647228
542,kavaratti,10.5669,72.642,28.43,76,49,2.49,IN,1730647229
543,najaf,31.9985,44.3398,29.06,37,11,3.65,IQ,1730647230
544,san jose de jachal,-30.2406,-68.7469,22.4,28,0,2.11,AR,1730647231
545,trancas,-26.2314,-65.2803,17.93,88,100,0.48,AR,1730647232
546,olinda,-8.0089,-34.8553,29.85,58,20,6.17,BR,1730647235
547,massawa,15.6097,39.45,30.94,56,4,4.15,ER,1730647236
548,moroto,2.5345,34.6666,27.81,35,69,5.82,UG,1730647237
549,hengchun,22.0042,120.7439,24.6,80,13,7.25,TW,1730647238
550,moroni,-11.7022,43.2551,26.26,83,77,1.62,KM,1730647239
551,cabugao,17.7931,120.4578,25.43,82,12,1.71,PH,1730647240
552,summerlin south,36.1027,-115.3811,11.37,49,36,3.63,US,1730647242
